<?xml version="1.0" encoding="UTF-8"?>
<kml xmlns="http://www.opengis.net/kml/2.2">
<Document>
<Placemark>
<name>Somaliland, Hargeisa</name>
<Point>
<coordinates>44.050000,9.55,0</coordinates>
</Point>
</Placemark>
<Placemark>
<name>South Georgia and South Sandwich Islands, King Edward Point</name>
<Point>
<coordinates>-36.500000,-54.283333,0</coordinates>
</Point>
</Placemark>
<Placemark>
<name>French Southern and Antarctic Lands, Port-aux-Français</name>
<Point>
<coordinates>70.216667,-49.35,0</coordinates>
</Point>
</Placemark>
<Placemark>
<name>Palestine, Jerusalem</name>
<Point>
<coordinates>35.233333,31.766666666666666,0</coordinates>
</Point>
</Placemark>
<Placemark>
<name>Aland Islands, Mariehamn</name>
<Point>
<coordinates>19.900000,60.116667,0</coordinates>
</Point>
</Placemark>
<Placemark>
<name>Nauru, Yaren</name>
<Point>
<coordinates>166.920867,-0.5477,0</coordinates>
</Point>
</Placemark>
<Placemark>
<name>Saint Martin, Marigot</name>
<Point>
<coordinates>-63.082200,18.0731,0</coordinates>
</Point>
</Placemark>
<Placemark>
<name>Tokelau, Atafu</name>
<Point>
<coordinates>-171.833333,-9.166667,0</coordinates>
</Point>
</Placemark>
<Placemark>
<name>Western Sahara, El-Aaiún</name>
<Point>
<coordinates>-13.203333,27.153611,0</coordinates>
</Point>
</Placemark>
<Placemark>
<name>Afghanistan, Kabul</name>
<Point>
<coordinates>69.183333,34.516666666666666,0</coordinates>
</Point>
</Placemark>
<Placemark>
<name>Albania, Tirana</name>
<Point>
<coordinates>19.816667,41.31666666666667,0</coordinates>
</Point>
</Placemark>
<Placemark>
<name>Algeria, Algiers</name>
<Point>
<coordinates>3.050000,36.75,0</coordinates>
</Point>
</Placemark>
<Placemark>
<name>American Samoa, Pago Pago</name>
<Point>
<coordinates>-170.700000,-14.266666666666667,0</coordinates>
</Point>
</Placemark>
<Placemark>
<name>Andorra, Andorra la Vella</name>
<Point>
<coordinates>1.516667,42.5,0</coordinates>
</Point>
</Placemark>
<Placemark>
<name>Angola, Luanda</name>
<Point>
<coordinates>13.216667,-8.833333333333334,0</coordinates>
</Point>
</Placemark>
<Placemark>
<name>Anguilla, The Valley</name>
<Point>
<coordinates>-63.050000,18.216666666666665,0</coordinates>
</Point>
</Placemark>
<Placemark>
<name>Antigua and Barbuda, Saint John's</name>
<Point>
<coordinates>-61.850000,17.116666666666667,0</coordinates>
</Point>
</Placemark>
<Placemark>
<name>Argentina, Buenos Aires</name>
<Point>
<coordinates>-58.666667,-34.583333333333336,0</coordinates>
</Point>
</Placemark>
<Placemark>
<name>Armenia, Yerevan</name>
<Point>
<coordinates>44.500000,40.166666666666664,0</coordinates>
</Point>
</Placemark>
<Placemark>
<name>Aruba, Oranjestad</name>
<Point>
<coordinates>-70.033333,12.516666666666667,0</coordinates>
</Point>
</Placemark>
<Placemark>
<name>Australia, Canberra</name>
<Point>
<coordinates>149.133333,-35.266666666666666,0</coordinates>
</Point>
</Placemark>
<Placemark>
<name>Austria, Vienna</name>
<Point>
<coordinates>16.366667,48.2,0</coordinates>
</Point>
</Placemark>
<Placemark>
<name>Azerbaijan, Baku</name>
<Point>
<coordinates>49.866667,40.38333333333333,0</coordinates>
</Point>
</Placemark>
<Placemark>
<name>Bahamas, Nassau</name>
<Point>
<coordinates>-77.350000,25.083333333333332,0</coordinates>
</Point>
</Placemark>
<Placemark>
<name>Bahrain, Manama</name>
<Point>
<coordinates>50.566667,26.233333333333334,0</coordinates>
</Point>
</Placemark>
<Placemark>
<name>Bangladesh, Dhaka</name>
<Point>
<coordinates>90.400000,23.716666666666665,0</coordinates>
</Point>
</Placemark>
<Placemark>
<name>Barbados, Bridgetown</name>
<Point>
<coordinates>-59.616667,13.1,0</coordinates>
</Point>
</Placemark>
<Placemark>
<name>Belarus, Minsk</name>
<Point>
<coordinates>27.566667,53.9,0</coordinates>
</Point>
</Placemark>
<Placemark>
<name>Belgium, Brussels</name>
<Point>
<coordinates>4.333333,50.833333333333336,0</coordinates>
</Point>
</Placemark>
<Placemark>
<name>Belize, Belmopan</name>
<Point>
<coordinates>-88.766667,17.25,0</coordinates>
</Point>
</Placemark>
<Placemark>
<name>Benin, Porto-Novo</name>
<Point>
<coordinates>2.616667,6.483333333333333,0</coordinates>
</Point>
</Placemark>
<Placemark>
<name>Bermuda, Hamilton</name>
<Point>
<coordinates>-64.783333,32.28333333333333,0</coordinates>
</Point>
</Placemark>
<Placemark>
<name>Bhutan, Thimphu</name>
<Point>
<coordinates>89.633333,27.466666666666665,0</coordinates>
</Point>
</Placemark>
<Placemark>
<name>Bolivia, La Paz</name>
<Point>
<coordinates>-68.150000,-16.5,0</coordinates>
</Point>
</Placemark>
<Placemark>
<name>Bosnia and Herzegovina, Sarajevo</name>
<Point>
<coordinates>18.416667,43.86666666666667,0</coordinates>
</Point>
</Placemark>
<Placemark>
<name>Botswana, Gaborone</name>
<Point>
<coordinates>25.900000,-24.633333333333333,0</coordinates>
</Point>
</Placemark>
<Placemark>
<name>Brazil, Brasilia</name>
<Point>
<coordinates>-47.916667,-15.783333333333333,0</coordinates>
</Point>
</Placemark>
<Placemark>
<name>British Virgin Islands, Road Town</name>
<Point>
<coordinates>-64.616667,18.416666666666668,0</coordinates>
</Point>
</Placemark>
<Placemark>
<name>Brunei Darussalam, Bandar Seri Begawan</name>
<Point>
<coordinates>114.933333,4.883333333333333,0</coordinates>
</Point>
</Placemark>
<Placemark>
<name>Bulgaria, Sofia</name>
<Point>
<coordinates>23.316667,42.68333333333333,0</coordinates>
</Point>
</Placemark>
<Placemark>
<name>Burkina Faso, Ouagadougou</name>
<Point>
<coordinates>-1.516667,12.366666666666667,0</coordinates>
</Point>
</Placemark>
<Placemark>
<name>Myanmar, Rangoon</name>
<Point>
<coordinates>96.150000,16.8,0</coordinates>
</Point>
</Placemark>
<Placemark>
<name>Burundi, Bujumbura</name>
<Point>
<coordinates>29.350000,-3.3666666666666667,0</coordinates>
</Point>
</Placemark>
<Placemark>
<name>Cambodia, Phnom Penh</name>
<Point>
<coordinates>104.916667,11.55,0</coordinates>
</Point>
</Placemark>
<Placemark>
<name>Cameroon, Yaounde</name>
<Point>
<coordinates>11.516667,3.8666666666666667,0</coordinates>
</Point>
</Placemark>
<Placemark>
<name>Canada, Ottawa</name>
<Point>
<coordinates>-75.700000,45.416666666666664,0</coordinates>
</Point>
</Placemark>
<Placemark>
<name>Cape Verde, Praia</name>
<Point>
<coordinates>-23.516667,14.916666666666666,0</coordinates>
</Point>
</Placemark>
<Placemark>
<name>Cayman Islands, George Town</name>
<Point>
<coordinates>-81.383333,19.3,0</coordinates>
</Point>
</Placemark>
<Placemark>
<name>Central African Republic, Bangui</name>
<Point>
<coordinates>18.583333,4.366666666666666,0</coordinates>
</Point>
</Placemark>
<Placemark>
<name>Chad, N'Djamena</name>
<Point>
<coordinates>15.033333,12.1,0</coordinates>
</Point>
</Placemark>
<Placemark>
<name>Chile, Santiago</name>
<Point>
<coordinates>-70.666667,-33.45,0</coordinates>
</Point>
</Placemark>
<Placemark>
<name>China, Beijing</name>
<Point>
<coordinates>116.383333,39.916666666666664,0</coordinates>
</Point>
</Placemark>
<Placemark>
<name>Christmas Island, The Settlement</name>
<Point>
<coordinates>105.716667,-10.416666666666666,0</coordinates>
</Point>
</Placemark>
<Placemark>
<name>Cocos Islands, West Island</name>
<Point>
<coordinates>96.833333,-12.166666666666666,0</coordinates>
</Point>
</Placemark>
<Placemark>
<name>Colombia, Bogota</name>
<Point>
<coordinates>-74.083333,4.6,0</coordinates>
</Point>
</Placemark>
<Placemark>
<name>Comoros, Moroni</name>
<Point>
<coordinates>43.233333,-11.7,0</coordinates>
</Point>
</Placemark>
<Placemark>
<name>Democratic Republic of the Congo, Kinshasa</name>
<Point>
<coordinates>15.300000,-4.316666666666666,0</coordinates>
</Point>
</Placemark>
<Placemark>
<name>Republic of Congo, Brazzaville</name>
<Point>
<coordinates>15.283333,-4.25,0</coordinates>
</Point>
</Placemark>
<Placemark>
<name>Cook Islands, Avarua</name>
<Point>
<coordinates>-159.766667,-21.2,0</coordinates>
</Point>
</Placemark>
<Placemark>
<name>Costa Rica, San Jose</name>
<Point>
<coordinates>-84.083333,9.933333333333334,0</coordinates>
</Point>
</Placemark>
<Placemark>
<name>Cote d'Ivoire, Yamoussoukro</name>
<Point>
<coordinates>-5.266667,6.816666666666666,0</coordinates>
</Point>
</Placemark>
<Placemark>
<name>Croatia, Zagreb</name>
<Point>
<coordinates>16.000000,45.8,0</coordinates>
</Point>
</Placemark>
<Placemark>
<name>Cuba, Havana</name>
<Point>
<coordinates>-82.350000,23.116666666666667,0</coordinates>
</Point>
</Placemark>
<Placemark>
<name>Curaçao, Willemstad</name>
<Point>
<coordinates>-68.916667,12.1,0</coordinates>
</Point>
</Placemark>
<Placemark>
<name>Cyprus, Nicosia</name>
<Point>
<coordinates>33.366667,35.166666666666664,0</coordinates>
</Point>
</Placemark>
<Placemark>
<name>Czech Republic, Prague</name>
<Point>
<coordinates>14.466667,50.083333333333336,0</coordinates>
</Point>
</Placemark>
<Placemark>
<name>Denmark, Copenhagen</name>
<Point>
<coordinates>12.583333,55.666666666666664,0</coordinates>
</Point>
</Placemark>
<Placemark>
<name>Djibouti, Djibouti</name>
<Point>
<coordinates>43.150000,11.583333333333334,0</coordinates>
</Point>
</Placemark>
<Placemark>
<name>Dominica, Roseau</name>
<Point>
<coordinates>-61.400000,15.3,0</coordinates>
</Point>
</Placemark>
<Placemark>
<name>Dominican Republic, Santo Domingo</name>
<Point>
<coordinates>-69.900000,18.466666666666665,0</coordinates>
</Point>
</Placemark>
<Placemark>
<name>Ecuador, Quito</name>
<Point>
<coordinates>-78.500000,-0.21666666666666667,0</coordinates>
</Point>
</Placemark>
<Placemark>
<name>Egypt, Cairo</name>
<Point>
<coordinates>31.250000,30.05,0</coordinates>
</Point>
</Placemark>
<Placemark>
<name>El Salvador, San Salvador</name>
<Point>
<coordinates>-89.200000,13.7,0</coordinates>
</Point>
</Placemark>
<Placemark>
<name>Equatorial Guinea, Malabo</name>
<Point>
<coordinates>8.783333,3.75,0</coordinates>
</Point>
</Placemark>
<Placemark>
<name>Eritrea, Asmara</name>
<Point>
<coordinates>38.933333,15.333333333333334,0</coordinates>
</Point>
</Placemark>
<Placemark>
<name>Estonia, Tallinn</name>
<Point>
<coordinates>24.716667,59.43333333333333,0</coordinates>
</Point>
</Placemark>
<Placemark>
<name>Ethiopia, Addis Ababa</name>
<Point>
<coordinates>38.700000,9.033333333333333,0</coordinates>
</Point>
</Placemark>
<Placemark>
<name>Falkland Islands, Stanley</name>
<Point>
<coordinates>-57.850000,-51.7,0</coordinates>
</Point>
</Placemark>
<Placemark>
<name>Faroe Islands, Torshavn</name>
<Point>
<coordinates>-6.766667,62,0</coordinates>
</Point>
</Placemark>
<Placemark>
<name>Fiji, Suva</name>
<Point>
<coordinates>178.416667,-18.133333333333333,0</coordinates>
</Point>
</Placemark>
<Placemark>
<name>Finland, Helsinki</name>
<Point>
<coordinates>24.933333,60.166666666666664,0</coordinates>
</Point>
</Placemark>
<Placemark>
<name>France, Paris</name>
<Point>
<coordinates>2.333333,48.86666666666667,0</coordinates>
</Point>
</Placemark>
<Placemark>
<name>French Polynesia, Papeete</name>
<Point>
<coordinates>-149.566667,-17.533333333333335,0</coordinates>
</Point>
</Placemark>
<Placemark>
<name>Gabon, Libreville</name>
<Point>
<coordinates>9.450000,0.38333333333333336,0</coordinates>
</Point>
</Placemark>
<Placemark>
<name>The Gambia, Banjul</name>
<Point>
<coordinates>-16.566667,13.45,0</coordinates>
</Point>
</Placemark>
<Placemark>
<name>Georgia, Tbilisi</name>
<Point>
<coordinates>44.833333,41.68333333333333,0</coordinates>
</Point>
</Placemark>
<Placemark>
<name>Germany, Berlin</name>
<Point>
<coordinates>13.400000,52.516666666666666,0</coordinates>
</Point>
</Placemark>
<Placemark>
<name>Ghana, Accra</name>
<Point>
<coordinates>-0.216667,5.55,0</coordinates>
</Point>
</Placemark>
<Placemark>
<name>Gibraltar, Gibraltar</name>
<Point>
<coordinates>-5.350000,36.13333333333333,0</coordinates>
</Point>
</Placemark>
<Placemark>
<name>Greece, Athens</name>
<Point>
<coordinates>23.733333,37.983333333333334,0</coordinates>
</Point>
</Placemark>
<Placemark>
<name>Greenland, Nuuk</name>
<Point>
<coordinates>-51.750000,64.18333333333334,0</coordinates>
</Point>
</Placemark>
<Placemark>
<name>Grenada, Saint George's</name>
<Point>
<coordinates>-61.750000,12.05,0</coordinates>
</Point>
</Placemark>
<Placemark>
<name>Guam, Hagatna</name>
<Point>
<coordinates>144.733333,13.466666666666667,0</coordinates>
</Point>
</Placemark>
<Placemark>
<name>Guatemala, Guatemala City</name>
<Point>
<coordinates>-90.516667,14.616666666666667,0</coordinates>
</Point>
</Placemark>
<Placemark>
<name>Guernsey, Saint Peter Port</name>
<Point>
<coordinates>-2.533333,49.45,0</coordinates>
</Point>
</Placemark>
<Placemark>
<name>Guinea, Conakry</name>
<Point>
<coordinates>-13.700000,9.5,0</coordinates>
</Point>
</Placemark>
<Placemark>
<name>Guinea-Bissau, Bissau</name>
<Point>
<coordinates>-15.583333,11.85,0</coordinates>
</Point>
</Placemark>
<Placemark>
<name>Guyana, Georgetown</name>
<Point>
<coordinates>-58.150000,6.8,0</coordinates>
</Point>
</Placemark>
<Placemark>
<name>Haiti, Port-au-Prince</name>
<Point>
<coordinates>-72.333333,18.533333333333335,0</coordinates>
</Point>
</Placemark>
<Placemark>
<name>Vatican City, Vatican City</name>
<Point>
<coordinates>12.450000,41.9,0</coordinates>
</Point>
</Placemark>
<Placemark>
<name>Honduras, Tegucigalpa</name>
<Point>
<coordinates>-87.216667,14.1,0</coordinates>
</Point>
</Placemark>
<Placemark>
<name>Hungary, Budapest</name>
<Point>
<coordinates>19.083333,47.5,0</coordinates>
</Point>
</Placemark>
<Placemark>
<name>Iceland, Reykjavik</name>
<Point>
<coordinates>-21.950000,64.15,0</coordinates>
</Point>
</Placemark>
<Placemark>
<name>India, New Delhi</name>
<Point>
<coordinates>77.200000,28.6,0</coordinates>
</Point>
</Placemark>
<Placemark>
<name>Indonesia, Jakarta</name>
<Point>
<coordinates>106.816667,-6.166666666666667,0</coordinates>
</Point>
</Placemark>
<Placemark>
<name>Iran, Tehran</name>
<Point>
<coordinates>51.416667,35.7,0</coordinates>
</Point>
</Placemark>
<Placemark>
<name>Iraq, Baghdad</name>
<Point>
<coordinates>44.400000,33.333333333333336,0</coordinates>
</Point>
</Placemark>
<Placemark>
<name>Ireland, Dublin</name>
<Point>
<coordinates>-6.233333,53.31666666666667,0</coordinates>
</Point>
</Placemark>
<Placemark>
<name>Isle of Man, Douglas</name>
<Point>
<coordinates>-4.483333,54.15,0</coordinates>
</Point>
</Placemark>
<Placemark>
<name>Israel, Jerusalem</name>
<Point>
<coordinates>35.233333,31.766666666666666,0</coordinates>
</Point>
</Placemark>
<Placemark>
<name>Italy, Rome</name>
<Point>
<coordinates>12.483333,41.9,0</coordinates>
</Point>
</Placemark>
<Placemark>
<name>Jamaica, Kingston</name>
<Point>
<coordinates>-76.800000,18,0</coordinates>
</Point>
</Placemark>
<Placemark>
<name>Japan, Tokyo</name>
<Point>
<coordinates>139.750000,35.68333333333333,0</coordinates>
</Point>
</Placemark>
<Placemark>
<name>Jersey, Saint Helier</name>
<Point>
<coordinates>-2.100000,49.18333333333333,0</coordinates>
</Point>
</Placemark>
<Placemark>
<name>Jordan, Amman</name>
<Point>
<coordinates>35.933333,31.95,0</coordinates>
</Point>
</Placemark>
<Placemark>
<name>Kazakhstan, Astana</name>
<Point>
<coordinates>71.416667,51.166666666666664,0</coordinates>
</Point>
</Placemark>
<Placemark>
<name>Kenya, Nairobi</name>
<Point>
<coordinates>36.816667,-1.2833333333333332,0</coordinates>
</Point>
</Placemark>
<Placemark>
<name>Kiribati, Tarawa</name>
<Point>
<coordinates>169.533333,-0.8833333333333333,0</coordinates>
</Point>
</Placemark>
<Placemark>
<name>North Korea, Pyongyang</name>
<Point>
<coordinates>125.750000,39.016666666666666,0</coordinates>
</Point>
</Placemark>
<Placemark>
<name>South Korea, Seoul</name>
<Point>
<coordinates>126.983333,37.55,0</coordinates>
</Point>
</Placemark>
<Placemark>
<name>Kosovo, Pristina</name>
<Point>
<coordinates>21.166667,42.666666666666664,0</coordinates>
</Point>
</Placemark>
<Placemark>
<name>Kuwait, Kuwait City</name>
<Point>
<coordinates>47.966667,29.366666666666667,0</coordinates>
</Point>
</Placemark>
<Placemark>
<name>Kyrgyzstan, Bishkek</name>
<Point>
<coordinates>74.600000,42.86666666666667,0</coordinates>
</Point>
</Placemark>
<Placemark>
<name>Laos, Vientiane</name>
<Point>
<coordinates>102.600000,17.966666666666665,0</coordinates>
</Point>
</Placemark>
<Placemark>
<name>Latvia, Riga</name>
<Point>
<coordinates>24.100000,56.95,0</coordinates>
</Point>
</Placemark>
<Placemark>
<name>Lebanon, Beirut</name>
<Point>
<coordinates>35.500000,33.86666666666667,0</coordinates>
</Point>
</Placemark>
<Placemark>
<name>Lesotho, Maseru</name>
<Point>
<coordinates>27.483333,-29.316666666666666,0</coordinates>
</Point>
</Placemark>
<Placemark>
<name>Liberia, Monrovia</name>
<Point>
<coordinates>-10.800000,6.3,0</coordinates>
</Point>
</Placemark>
<Placemark>
<name>Libya, Tripoli</name>
<Point>
<coordinates>13.166667,32.88333333333333,0</coordinates>
</Point>
</Placemark>
<Placemark>
<name>Liechtenstein, Vaduz</name>
<Point>
<coordinates>9.516667,47.13333333333333,0</coordinates>
</Point>
</Placemark>
<Placemark>
<name>Lithuania, Vilnius</name>
<Point>
<coordinates>25.316667,54.68333333333333,0</coordinates>
</Point>
</Placemark>
<Placemark>
<name>Luxembourg, Luxembourg</name>
<Point>
<coordinates>6.116667,49.6,0</coordinates>
</Point>
</Placemark>
<Placemark>
<name>Macedonia, Skopje</name>
<Point>
<coordinates>21.433333,42,0</coordinates>
</Point>
</Placemark>
<Placemark>
<name>Madagascar, Antananarivo</name>
<Point>
<coordinates>47.516667,-18.916666666666668,0</coordinates>
</Point>
</Placemark>
<Placemark>
<name>Malawi, Lilongwe</name>
<Point>
<coordinates>33.783333,-13.966666666666667,0</coordinates>
</Point>
</Placemark>
<Placemark>
<name>Malaysia, Kuala Lumpur</name>
<Point>
<coordinates>101.700000,3.1666666666666665,0</coordinates>
</Point>
</Placemark>
<Placemark>
<name>Maldives, Male</name>
<Point>
<coordinates>73.500000,4.166666666666667,0</coordinates>
</Point>
</Placemark>
<Placemark>
<name>Mali, Bamako</name>
<Point>
<coordinates>-8.000000,12.65,0</coordinates>
</Point>
</Placemark>
<Placemark>
<name>Malta, Valletta</name>
<Point>
<coordinates>14.500000,35.88333333333333,0</coordinates>
</Point>
</Placemark>
<Placemark>
<name>Marshall Islands, Majuro</name>
<Point>
<coordinates>171.383333,7.1,0</coordinates>
</Point>
</Placemark>
<Placemark>
<name>Mauritania, Nouakchott</name>
<Point>
<coordinates>-15.966667,18.066666666666666,0</coordinates>
</Point>
</Placemark>
<Placemark>
<name>Mauritius, Port Louis</name>
<Point>
<coordinates>57.483333,-20.15,0</coordinates>
</Point>
</Placemark>
<Placemark>
<name>Mexico, Mexico City</name>
<Point>
<coordinates>-99.133333,19.433333333333334,0</coordinates>
</Point>
</Placemark>
<Placemark>
<name>Federated States of Micronesia, Palikir</name>
<Point>
<coordinates>158.150000,6.916666666666667,0</coordinates>
</Point>
</Placemark>
<Placemark>
<name>Moldova, Chisinau</name>
<Point>
<coordinates>28.850000,47,0</coordinates>
</Point>
</Placemark>
<Placemark>
<name>Monaco, Monaco</name>
<Point>
<coordinates>7.416667,43.733333333333334,0</coordinates>
</Point>
</Placemark>
<Placemark>
<name>Mongolia, Ulaanbaatar</name>
<Point>
<coordinates>106.916667,47.916666666666664,0</coordinates>
</Point>
</Placemark>
<Placemark>
<name>Montenegro, Podgorica</name>
<Point>
<coordinates>19.266667,42.43333333333333,0</coordinates>
</Point>
</Placemark>
<Placemark>
<name>Montserrat, Plymouth</name>
<Point>
<coordinates>-62.216667,16.7,0</coordinates>
</Point>
</Placemark>
<Placemark>
<name>Morocco, Rabat</name>
<Point>
<coordinates>-6.816667,34.016666666666666,0</coordinates>
</Point>
</Placemark>
<Placemark>
<name>Mozambique, Maputo</name>
<Point>
<coordinates>32.583333,-25.95,0</coordinates>
</Point>
</Placemark>
<Placemark>
<name>Namibia, Windhoek</name>
<Point>
<coordinates>17.083333,-22.566666666666666,0</coordinates>
</Point>
</Placemark>
<Placemark>
<name>Nepal, Kathmandu</name>
<Point>
<coordinates>85.316667,27.716666666666665,0</coordinates>
</Point>
</Placemark>
<Placemark>
<name>Netherlands, Amsterdam</name>
<Point>
<coordinates>4.916667,52.35,0</coordinates>
</Point>
</Placemark>
<Placemark>
<name>New Caledonia, Noumea</name>
<Point>
<coordinates>166.450000,-22.266666666666666,0</coordinates>
</Point>
</Placemark>
<Placemark>
<name>New Zealand, Wellington</name>
<Point>
<coordinates>174.783333,-41.3,0</coordinates>
</Point>
</Placemark>
<Placemark>
<name>Nicaragua, Managua</name>
<Point>
<coordinates>-86.250000,12.133333333333333,0</coordinates>
</Point>
</Placemark>
<Placemark>
<name>Niger, Niamey</name>
<Point>
<coordinates>2.116667,13.516666666666667,0</coordinates>
</Point>
</Placemark>
<Placemark>
<name>Nigeria, Abuja</name>
<Point>
<coordinates>7.533333,9.083333333333334,0</coordinates>
</Point>
</Placemark>
<Placemark>
<name>Niue, Alofi</name>
<Point>
<coordinates>-169.916667,-19.016666666666666,0</coordinates>
</Point>
</Placemark>
<Placemark>
<name>Norfolk Island, Kingston</name>
<Point>
<coordinates>167.966667,-29.05,0</coordinates>
</Point>
</Placemark>
<Placemark>
<name>Northern Mariana Islands, Saipan</name>
<Point>
<coordinates>145.750000,15.2,0</coordinates>
</Point>
</Placemark>
<Placemark>
<name>Norway, Oslo</name>
<Point>
<coordinates>10.750000,59.916666666666664,0</coordinates>
</Point>
</Placemark>
<Placemark>
<name>Oman, Muscat</name>
<Point>
<coordinates>58.583333,23.616666666666667,0</coordinates>
</Point>
</Placemark>
<Placemark>
<name>Pakistan, Islamabad</name>
<Point>
<coordinates>73.050000,33.68333333333333,0</coordinates>
</Point>
</Placemark>
<Placemark>
<name>Palau, Melekeok</name>
<Point>
<coordinates>134.633333,7.483333333333333,0</coordinates>
</Point>
</Placemark>
<Placemark>
<name>Panama, Panama City</name>
<Point>
<coordinates>-79.533333,8.966666666666667,0</coordinates>
</Point>
</Placemark>
<Placemark>
<name>Papua New Guinea, Port Moresby</name>
<Point>
<coordinates>147.183333,-9.45,0</coordinates>
</Point>
</Placemark>
<Placemark>
<name>Paraguay, Asuncion</name>
<Point>
<coordinates>-57.666667,-25.266666666666666,0</coordinates>
</Point>
</Placemark>
<Placemark>
<name>Peru, Lima</name>
<Point>
<coordinates>-77.050000,-12.05,0</coordinates>
</Point>
</Placemark>
<Placemark>
<name>Philippines, Manila</name>
<Point>
<coordinates>120.966667,14.6,0</coordinates>
</Point>
</Placemark>
<Placemark>
<name>Pitcairn Islands, Adamstown</name>
<Point>
<coordinates>-130.083333,-25.066666666666666,0</coordinates>
</Point>
</Placemark>
<Placemark>
<name>Poland, Warsaw</name>
<Point>
<coordinates>21.000000,52.25,0</coordinates>
</Point>
</Placemark>
<Placemark>
<name>Portugal, Lisbon</name>
<Point>
<coordinates>-9.133333,38.71666666666667,0</coordinates>
</Point>
</Placemark>
<Placemark>
<name>Puerto Rico, San Juan</name>
<Point>
<coordinates>-66.116667,18.466666666666665,0</coordinates>
</Point>
</Placemark>
<Placemark>
<name>Qatar, Doha</name>
<Point>
<coordinates>51.533333,25.283333333333335,0</coordinates>
</Point>
</Placemark>
<Placemark>
<name>Romania, Bucharest</name>
<Point>
<coordinates>26.100000,44.43333333333333,0</coordinates>
</Point>
</Placemark>
<Placemark>
<name>Russia, Moscow</name>
<Point>
<coordinates>37.600000,55.75,0</coordinates>
</Point>
</Placemark>
<Placemark>
<name>Rwanda, Kigali</name>
<Point>
<coordinates>30.050000,-1.95,0</coordinates>
</Point>
</Placemark>
<Placemark>
<name>Saint Barthelemy, Gustavia</name>
<Point>
<coordinates>-62.850000,17.883333333333333,0</coordinates>
</Point>
</Placemark>
<Placemark>
<name>Saint Helena, Jamestown</name>
<Point>
<coordinates>-5.716667,-15.933333333333334,0</coordinates>
</Point>
</Placemark>
<Placemark>
<name>Saint Kitts and Nevis, Basseterre</name>
<Point>
<coordinates>-62.716667,17.3,0</coordinates>
</Point>
</Placemark>
<Placemark>
<name>Saint Lucia, Castries</name>
<Point>
<coordinates>-61.000000,14,0</coordinates>
</Point>
</Placemark>
<Placemark>
<name>Saint Pierre and Miquelon, Saint-Pierre</name>
<Point>
<coordinates>-56.183333,46.766666666666666,0</coordinates>
</Point>
</Placemark>
<Placemark>
<name>Saint Vincent and the Grenadines, Kingstown</name>
<Point>
<coordinates>-61.216667,13.133333333333333,0</coordinates>
</Point>
</Placemark>
<Placemark>
<name>Samoa, Apia</name>
<Point>
<coordinates>-171.766667,-13.816666666666666,0</coordinates>
</Point>
</Placemark>
<Placemark>
<name>San Marino, San Marino</name>
<Point>
<coordinates>12.416667,43.93333333333333,0</coordinates>
</Point>
</Placemark>
<Placemark>
<name>Sao Tome and Principe, Sao Tome</name>
<Point>
<coordinates>6.733333,0.3333333333333333,0</coordinates>
</Point>
</Placemark>
<Placemark>
<name>Saudi Arabia, Riyadh</name>
<Point>
<coordinates>46.700000,24.65,0</coordinates>
</Point>
</Placemark>
<Placemark>
<name>Senegal, Dakar</name>
<Point>
<coordinates>-17.633333,14.733333333333333,0</coordinates>
</Point>
</Placemark>
<Placemark>
<name>Serbia, Belgrade</name>
<Point>
<coordinates>20.500000,44.833333333333336,0</coordinates>
</Point>
</Placemark>
<Placemark>
<name>Seychelles, Victoria</name>
<Point>
<coordinates>55.450000,-4.616666666666667,0</coordinates>
</Point>
</Placemark>
<Placemark>
<name>Sierra Leone, Freetown</name>
<Point>
<coordinates>-13.233333,8.483333333333333,0</coordinates>
</Point>
</Placemark>
<Placemark>
<name>Singapore, Singapore</name>
<Point>
<coordinates>103.850000,1.2833333333333332,0</coordinates>
</Point>
</Placemark>
<Placemark>
<name>Sint Maarten, Philipsburg</name>
<Point>
<coordinates>-63.033333,18.016666666666666,0</coordinates>
</Point>
</Placemark>
<Placemark>
<name>Slovakia, Bratislava</name>
<Point>
<coordinates>17.116667,48.15,0</coordinates>
</Point>
</Placemark>
<Placemark>
<name>Slovenia, Ljubljana</name>
<Point>
<coordinates>14.516667,46.05,0</coordinates>
</Point>
</Placemark>
<Placemark>
<name>Solomon Islands, Honiara</name>
<Point>
<coordinates>159.950000,-9.433333333333334,0</coordinates>
</Point>
</Placemark>
<Placemark>
<name>Somalia, Mogadishu</name>
<Point>
<coordinates>45.333333,2.066666666666667,0</coordinates>
</Point>
</Placemark>
<Placemark>
<name>South Africa, Pretoria</name>
<Point>
<coordinates>28.216667,-25.7,0</coordinates>
</Point>
</Placemark>
<Placemark>
<name>South Sudan, Juba</name>
<Point>
<coordinates>31.616667,4.85,0</coordinates>
</Point>
</Placemark>
<Placemark>
<name>Spain, Madrid</name>
<Point>
<coordinates>-3.683333,40.4,0</coordinates>
</Point>
</Placemark>
<Placemark>
<name>Sri Lanka, Colombo</name>
<Point>
<coordinates>79.833333,6.916666666666667,0</coordinates>
</Point>
</Placemark>
<Placemark>
<name>Sudan, Khartoum</name>
<Point>
<coordinates>32.533333,15.6,0</coordinates>
</Point>
</Placemark>
<Placemark>
<name>Suriname, Paramaribo</name>
<Point>
<coordinates>-55.166667,5.833333333333333,0</coordinates>
</Point>
</Placemark>
<Placemark>
<name>Svalbard, Longyearbyen</name>
<Point>
<coordinates>15.633333,78.21666666666667,0</coordinates>
</Point>
</Placemark>
<Placemark>
<name>Swaziland, Mbabane</name>
<Point>
<coordinates>31.133333,-26.316666666666666,0</coordinates>
</Point>
</Placemark>
<Placemark>
<name>Sweden, Stockholm</name>
<Point>
<coordinates>18.050000,59.333333333333336,0</coordinates>
</Point>
</Placemark>
<Placemark>
<name>Switzerland, Bern</name>
<Point>
<coordinates>7.466667,46.916666666666664,0</coordinates>
</Point>
</Placemark>
<Placemark>
<name>Syria, Damascus</name>
<Point>
<coordinates>36.300000,33.5,0</coordinates>
</Point>
</Placemark>
<Placemark>
<name>Taiwan, Taipei</name>
<Point>
<coordinates>121.516667,25.033333333333335,0</coordinates>
</Point>
</Placemark>
<Placemark>
<name>Tajikistan, Dushanbe</name>
<Point>
<coordinates>68.766667,38.55,0</coordinates>
</Point>
</Placemark>
<Placemark>
<name>Tanzania, Dar es Salaam</name>
<Point>
<coordinates>39.283333,-6.8,0</coordinates>
</Point>
</Placemark>
<Placemark>
<name>Thailand, Bangkok</name>
<Point>
<coordinates>100.516667,13.75,0</coordinates>
</Point>
</Placemark>
<Placemark>
<name>Timor-Leste, Dili</name>
<Point>
<coordinates>125.600000,-8.583333333333334,0</coordinates>
</Point>
</Placemark>
<Placemark>
<name>Togo, Lome</name>
<Point>
<coordinates>1.216667,6.116666666666666,0</coordinates>
</Point>
</Placemark>
<Placemark>
<name>Tonga, Nuku'alofa</name>
<Point>
<coordinates>-175.200000,-21.133333333333333,0</coordinates>
</Point>
</Placemark>
<Placemark>
<name>Trinidad and Tobago, Port of Spain</name>
<Point>
<coordinates>-61.516667,10.65,0</coordinates>
</Point>
</Placemark>
<Placemark>
<name>Tunisia, Tunis</name>
<Point>
<coordinates>10.183333,36.8,0</coordinates>
</Point>
</Placemark>
<Placemark>
<name>Turkey, Ankara</name>
<Point>
<coordinates>32.866667,39.93333333333333,0</coordinates>
</Point>
</Placemark>
<Placemark>
<name>Turkmenistan, Ashgabat</name>
<Point>
<coordinates>58.383333,37.95,0</coordinates>
</Point>
</Placemark>
<Placemark>
<name>Turks and Caicos Islands, Grand Turk</name>
<Point>
<coordinates>-71.133333,21.466666666666665,0</coordinates>
</Point>
</Placemark>
<Placemark>
<name>Tuvalu, Funafuti</name>
<Point>
<coordinates>179.216667,-8.516666666666667,0</coordinates>
</Point>
</Placemark>
<Placemark>
<name>Uganda, Kampala</name>
<Point>
<coordinates>32.550000,0.31666666666666665,0</coordinates>
</Point>
</Placemark>
<Placemark>
<name>Ukraine, Kyiv</name>
<Point>
<coordinates>30.516667,50.43333333333333,0</coordinates>
</Point>
</Placemark>
<Placemark>
<name>United Arab Emirates, Abu Dhabi</name>
<Point>
<coordinates>54.366667,24.466666666666665,0</coordinates>
</Point>
</Placemark>
<Placemark>
<name>United Kingdom, London</name>
<Point>
<coordinates>-0.083333,51.5,0</coordinates>
</Point>
</Placemark>
<Placemark>
<name>United States, Washington</name>
<Point>
<coordinates>-77.000000,38.883333,0</coordinates>
</Point>
</Placemark>
<Placemark>
<name>Uruguay, Montevideo</name>
<Point>
<coordinates>-56.166667,-34.85,0</coordinates>
</Point>
</Placemark>
<Placemark>
<name>Uzbekistan, Tashkent</name>
<Point>
<coordinates>69.250000,41.31666666666667,0</coordinates>
</Point>
</Placemark>
<Placemark>
<name>Vanuatu, Port-Vila</name>
<Point>
<coordinates>168.316667,-17.733333333333334,0</coordinates>
</Point>
</Placemark>
<Placemark>
<name>Venezuela, Caracas</name>
<Point>
<coordinates>-66.866667,10.483333333333333,0</coordinates>
</Point>
</Placemark>
<Placemark>
<name>Vietnam, Hanoi</name>
<Point>
<coordinates>105.850000,21.033333333333335,0</coordinates>
</Point>
</Placemark>
<Placemark>
<name>US Virgin Islands, Charlotte Amalie</name>
<Point>
<coordinates>-64.933333,18.35,0</coordinates>
</Point>
</Placemark>
<Placemark>
<name>Wallis and Futuna, Mata-Utu</name>
<Point>
<coordinates>-171.933333,-13.95,0</coordinates>
</Point>
</Placemark>
<Placemark>
<name>Yemen, Sanaa</name>
<Point>
<coordinates>44.200000,15.35,0</coordinates>
</Point>
</Placemark>
<Placemark>
<name>Zambia, Lusaka</name>
<Point>
<coordinates>28.283333,-15.416666666666666,0</coordinates>
</Point>
</Placemark>
<Placemark>
<name>Zimbabwe, Harare</name>
<Point>
<coordinates>31.033333,-17.816666666666666,0</coordinates>
</Point>
</Placemark>
<Placemark>
<name>US Minor Outlying Islands, Washington</name>
<Point>
<coordinates>-77.000000,38.883333,0</coordinates>
</Point>
</Placemark>
<Placemark>
<name>Antarctica, N/A</name>
<Point>
<coordinates>0.000000,0,0</coordinates>
</Point>
</Placemark>
<Placemark>
<name>Northern Cyprus, North Nicosia</name>
<Point>
<coordinates>33.366667,35.183333,0</coordinates>
</Point>
</Placemark>
<Placemark>
<name>Hong Kong, N/A</name>
<Point>
<coordinates>0.000000,0,0</coordinates>
</Point>
</Placemark>
<Placemark>
<name>Heard Island and McDonald Islands, N/A</name>
<Point>
<coordinates>0.000000,0,0</coordinates>
</Point>
</Placemark>
<Placemark>
<name>British Indian Ocean Territory, Diego Garcia</name>
<Point>
<coordinates>72.400000,-7.3,0</coordinates>
</Point>
</Placemark>
<Placemark>
<name>Macau, N/A</name>
<Point>
<coordinates>0.000000,0,0</coordinates>
</Point>
</Placemark>
</Document>
</kml>
